{
  "schedule": [
    {
      "_id": "LuGA4hbbxUlfdhf9OoW9",
      "day": 5,
      "key": "ZumbaStep",
      "location": "norths",
      "start": "10:00",
      "store": "schedule",
      "type": "class"
    },
    {
      "_id": "rB1MumhCIHYjukzRTR0i",
      "_effect": 1399816800,
      "day": 5,
      "key": "Zumba",
      "location": "snap",
      "start": "19:30",
      "store": "schedule",
      "type": "class"
    }
  ],
  "class": [
    {
      "_id": "bjrSxOgEmhZneYni5yDE",
      "color": "#ff00ff",
      "desc": "Dancing",
      "key": "Zumba",
      "store": "class",
      "type": "full"
    }
  ],
  "location": [
    {
      "_id": "bq2fshryxsrISIMwJ9be",
      "address": {
        "line1": "113-115 Anzac Parade",
        "postcode": "2033",
        "state": "NSW",
        "suburb": "Kensington"
      },
      "contact": {
        "phone": "0431 492 180"
      },
      "key": "snap",
      "map": {
        "geo": {
          "_lat": -33.9067795,
          "_long": 151.2232555
        },
        "link": "https://goo.gl/maps/gtMLuJkjSWH2"
      },
      "name": "Snap Fitness Kensington",
      "sort": 1,
      "store": "location"
    },
    {
      "_id": "ngMJ73zg9aUhnTxmaCJL",
      "address": {
        "line1": "365 Pacific Hwy",
        "postcode": "2065",
        "state": "NSW",
        "suburb": "Crows Nest"
      },
      "contact": {
        "phone": "(02) 9922 6666"
      },
      "key": "norths",
      "map": {
        "geo": {
          "_lat": -33.8302819,
          "_long": 151.203424
        },
        "link": "http://web2.northsydgi-h.schools.nsw.edu.au/public/"
      },
      "name": "North Sydney Girls High School",
      "sort": 2,
      "store": "location"
    }
  ],
  "instructor": [
    {
      "_id": "iLMjxmFnKNNpHDzhN8ta",
      "key": "JEC",
      "link": [
        {
          "type": "facebook",
          "url": "."
        }
      ],
      "name": "Jorge Erazo Casanova",
      "sort": 1,
      "store": "instructor"
    }
  ]
}